{
  "type": "FeatureCollection",
  "features": [
    {
      "type": "Feature",
      "properties": {
        "marker-color": "#7e7e7e",
        "marker-size": "medium",
        "marker-symbol": "",
        "title": "Berlin",
        "date": "2016-04-01"
      },
      "geometry": {
        "type": "Point",
        "coordinates": [
          13.38958740234375,
          52.517892228382834
        ]
      }
    },
    {
      "type": "Feature",
      "properties": {
        "marker-color": "#7e7e7e",
        "marker-size": "medium",
        "marker-symbol": "",
        "title": "München"
      },
      "geometry": {
        "type": "Point",
        "coordinates": [
          11.576156616210938,
          48.13745402934834
        ]
      }
    },
    {
      "type": "Feature",
      "properties": {
        "marker-color": "#7e7e7e",
        "marker-size": "medium",
        "marker-symbol": "",
        "title": "Kopenhagen"
      },
      "geometry": {
        "type": "Point",
        "coordinates": [
          12.571449279785156,
          55.68706879176388
        ]
      }
    },
    {
      "type": "Feature",
      "properties": {
        "marker-color": "#7e7e7e",
        "marker-size": "medium",
        "marker-symbol": "",
        "title": "London"
      },
      "geometry": {
        "type": "Point",
        "coordinates": [
          -0.1318359375,
          51.50703296721856
        ]
      }
    },
    {
      "type": "Feature",
      "properties": {
        "marker-color": "#7e7e7e",
        "marker-size": "medium",
        "marker-symbol": "",
        "title": "Exeter"
      },
      "geometry": {
        "type": "Point",
        "coordinates": [
          -3.526611328125,
          50.725806962720625
        ]
      }
    },
    {
      "type": "Feature",
      "properties": {
        "marker-color": "#7e7e7e",
        "marker-size": "medium",
        "marker-symbol": "",
        "title": "Liverpool"
      },
      "geometry": {
        "type": "Point",
        "coordinates": [
          -2.9821014404296875,
          53.405233950076024
        ]
      }
    },
    {
      "type": "Feature",
      "properties": {
        "marker-color": "#7e7e7e",
        "marker-size": "medium",
        "marker-symbol": "",
        "title": "West Kirby"
      },
      "geometry": {
        "type": "Point",
        "coordinates": [
          -3.1896400451660156,
          53.372576177959054
        ]
      }
    },
    {
      "type": "Feature",
      "properties": {
        "marker-color": "#7e7e7e",
        "marker-size": "medium",
        "marker-symbol": "",
        "title": "Paris",
        "date": "2008-07-01"
      },
      "geometry": {
        "type": "Point",
        "coordinates": [
          2.3517608642578125,
          48.85613168160397
        ]
      }
    },
    {
      "type": "Feature",
      "properties": {
        "marker-color": "#7e7e7e",
        "marker-size": "medium",
        "marker-symbol": "",
        "title": "Montpellier",
        "date": "2010-06-01"
      },
      "geometry": {
        "type": "Point",
        "coordinates": [
          3.8761138916015625,
          43.611346752221245
        ]
      }
    },
    {
      "type": "Feature",
      "properties": {
        "marker-color": "#7e7e7e",
        "marker-size": "medium",
        "marker-symbol": "",
        "title": "Lisboa",
        "date": "2015-06-01"
      },
      "geometry": {
        "type": "Point",
        "coordinates": [
          -9.131011962890625,
          38.71551876930462
        ]
      }
    },
    {
      "type": "Feature",
      "properties": {
        "marker-color": "#7e7e7e",
        "marker-size": "medium",
        "marker-symbol": "",
        "title": "Strassburg"
      },
      "geometry": {
        "type": "Point",
        "coordinates": [
          7.74982452392578,
          48.58455670556232
        ]
      }
    },
    {
      "type": "Feature",
      "properties": {
        "marker-color": "#7e7e7e",
        "marker-size": "medium",
        "marker-symbol": "",
        "title": "Mariapfarr"
      },
      "geometry": {
        "type": "Point",
        "coordinates": [
          13.745956420898438,
          47.15096839404951
        ]
      }
    },
    {
      "type": "Feature",
      "properties": {
        "marker-color": "#7e7e7e",
        "marker-size": "medium",
        "marker-symbol": "",
        "title": "Chiang Mai",
        "date": "2014-07-01"
      },
      "geometry": {
        "type": "Point",
        "coordinates": [
          98.98647308349608,
          18.790617651875582
        ]
      }
    },
    {
      "type": "Feature",
      "properties": {
        "marker-color": "#7e7e7e",
        "marker-size": "medium",
        "marker-symbol": "",
        "title": "Bangkok",
        "date": "2014-07-01"
      },
      "geometry": {
        "type": "Point",
        "coordinates": [
          100.50498962402344,
          13.752724664397
        ]
      }
    },
    {
      "type": "Feature",
      "properties": {
        "marker-color": "#7e7e7e",
        "marker-size": "medium",
        "marker-symbol": "",
        "title": "Ko Tao",
        "date": "2014-07-01"
      },
      "geometry": {
        "type": "Point",
        "coordinates": [
          99.83413696289062,
          10.093938033440626
        ]
      }
    },
    {
      "type": "Feature",
      "properties": {
        "marker-color": "#7e7e7e",
        "marker-size": "medium",
        "marker-symbol": "",
        "title": "Ko Phangan",
        "date": "2014-07-01"
      },
      "geometry": {
        "type": "Point",
        "coordinates": [
          100.02124786376953,
          9.746617945502305
        ]
      }
    },
    {
      "type": "Feature",
      "properties": {
        "marker-color": "#7e7e7e",
        "marker-size": "medium",
        "marker-symbol": "",
        "title": "Krabi",
        "date": "2014-07-01"
      },
      "geometry": {
        "type": "Point",
        "coordinates": [
          98.83867263793945,
          8.012571277634345
        ]
      }
    },
    {
      "type": "Feature",
      "properties": {
        "marker-color": "#7e7e7e",
        "marker-size": "medium",
        "marker-symbol": "",
        "title": "George Town",
        "date": "2014-07-01"
      },
      "geometry": {
        "type": "Point",
        "coordinates": [
          100.32903671264648,
          5.417097518793559
        ]
      }
    },
    {
      "type": "Feature",
      "properties": {
        "marker-color": "#7e7e7e",
        "marker-size": "medium",
        "marker-symbol": "",
        "title": "Sydney",
        "date": "2014-07-30"
      },
      "geometry": {
        "type": "Point",
        "coordinates": [
          151.21170043945312,
          -33.85673152928874
        ]
      }
    },
    {
      "type": "Feature",
      "properties": {
        "marker-color": "#7e7e7e",
        "marker-size": "medium",
        "marker-symbol": "",
        "title": "Brisbane",
        "date": "2014-07-30"
      },
      "geometry": {
        "type": "Point",
        "coordinates": [
          153.03131103515625,
          -27.4680690032157
        ]
      }
    },
    {
      "type": "Feature",
      "properties": {
        "marker-color": "#7e7e7e",
        "marker-size": "medium",
        "marker-symbol": "",
        "title": "Rainbow Beach",
        "date": "2014-07-30"
      },
      "geometry": {
        "type": "Point",
        "coordinates": [
          153.09104919433594,
          -25.905865086323807
        ]
      }
    },
    {
      "type": "Feature",
      "properties": {
        "marker-color": "#7e7e7e",
        "marker-size": "medium",
        "marker-symbol": "",
        "title": "Fraser Island",
        "date": "2014-07-30"
      },
      "geometry": {
        "type": "Point",
        "coordinates": [
          153.1555938720703,
          -25.22295665631596
        ]
      }
    },
    {
      "type": "Feature",
      "properties": {
        "marker-color": "#7e7e7e",
        "marker-size": "medium",
        "marker-symbol": "",
        "title": "Cairns",
        "date": "2014-07-30"
      },
      "geometry": {
        "type": "Point",
        "coordinates": [
          145.77346801757812,
          -16.91888080315433
        ]
      }
    },
    {
      "type": "Feature",
      "properties": {
        "marker-color": "#7e7e7e",
        "marker-size": "medium",
        "marker-symbol": "",
        "title": "Airlie Beach",
        "date": "2014-07-30"
      },
      "geometry": {
        "type": "Point",
        "coordinates": [
          148.7182331085205,
          -20.269041112326832
        ]
      }
    },
    {
      "type": "Feature",
      "properties": {
        "marker-color": "#7e7e7e",
        "marker-size": "medium",
        "marker-symbol": "",
        "title": "Singapore",
        "date": "2014-07-01"
      },
      "geometry": {
        "type": "Point",
        "coordinates": [
          103.84002685546875,
          1.290784355433135
        ]
      }
    },
    {
      "type": "Feature",
      "properties": {
        "marker-color": "#7e7e7e",
        "marker-size": "medium",
        "marker-symbol": "",
        "title": "San Francisco",
        "date": "2014-08-15"
      },
      "geometry": {
        "type": "Point",
        "coordinates": [
          -122.41996765136719,
          37.778855861649966
        ]
      }
    },
    {
      "type": "Feature",
      "properties": {
        "marker-color": "#7e7e7e",
        "marker-size": "medium",
        "marker-symbol": "",
        "title": "Los Angeles",
        "date": "2014-08-15"
      },
      "geometry": {
        "type": "Point",
        "coordinates": [
          -118.24172973632812,
          34.05152161016494
        ]
      }
    },
    {
      "type": "Feature",
      "properties": {
        "marker-color": "#7e7e7e",
        "marker-size": "medium",
        "marker-symbol": "",
        "title": "Lloret de Mar",
        "date": "2011-07-01"
      },
      "geometry": {
        "type": "Point",
        "coordinates": [
          2.8399658203125,
          41.69650051162981
        ]
      }
    },
    {
      "type": "Feature",
      "properties": {
        "marker-color": "#7e7e7e",
        "marker-size": "medium",
        "marker-symbol": "",
        "title": "South Lake Tahoe",
        "date": "2014-08-15"
      },
      "geometry": {
        "type": "Point",
        "coordinates": [
          -119.99061584472655,
          38.9396506365778
        ]
      }
    },
    {
      "type": "Feature",
      "properties": {
        "marker-color": "#7e7e7e",
        "marker-size": "medium",
        "marker-symbol": "",
        "title": "Las Vegas",
        "date": "2014-08-15"
      },
      "geometry": {
        "type": "Point",
        "coordinates": [
          -115.1641845703125,
          36.166705242637356
        ]
      }
    },
    {
      "type": "Feature",
      "properties": {
        "marker-color": "#7e7e7e",
        "marker-size": "medium",
        "marker-symbol": "",
        "title": "Joshua Tree National Park",
        "date": "2014-08-15"
      },
      "geometry": {
        "type": "Point",
        "coordinates": [
          -115.94713211059569,
          33.89585344781889
        ]
      }
    },
    {
      "type": "Feature",
      "properties": {
        "marker-color": "#7e7e7e",
        "marker-size": "medium",
        "marker-symbol": "",
        "title": "Zion National Park",
        "date": "2014-08-15"
      },
      "geometry": {
        "type": "Point",
        "coordinates": [
          -113.00485610961914,
          37.319117037605444
        ]
      }
    },
    {
      "type": "Feature",
      "properties": {
        "marker-color": "#7e7e7e",
        "marker-size": "medium",
        "marker-symbol": "",
        "title": "Death Valley National Park",
        "date": "2014-08-15"
      },
      "geometry": {
        "type": "Point",
        "coordinates": [
          -117.11013793945314,
          36.4952855312581
        ]
      }
    },
    {
      "type": "Feature",
      "properties": {
        "marker-color": "#7e7e7e",
        "marker-size": "medium",
        "marker-symbol": "",
        "title": "New York",
        "date": "2014-08-30"
      },
      "geometry": {
        "type": "Point",
        "coordinates": [
          -73.9870834350586,
          40.73086864241804
        ]
      }
    },
    {
      "type": "Feature",
      "properties": {
        "marker-color": "#7e7e7e",
        "marker-size": "medium",
        "marker-symbol": "",
        "title": "Braga"
      },
      "geometry": {
        "type": "Point",
        "coordinates": [
          -8.427886962890625,
          41.549700145132725
        ]
      }
    },
    {
      "type": "Feature",
      "properties": {
        "marker-color": "#7e7e7e",
        "marker-size": "medium",
        "marker-symbol": "",
        "title": "Protaras",
        "date": "2013-07-01"
      },
      "geometry": {
        "type": "Point",
        "coordinates": [
          34.053497314453125,
          35.01537628090694
        ]
      }
    },
    {
      "type": "Feature",
      "properties": {
        "marker-color": "#7e7e7e",
        "marker-size": "medium",
        "marker-symbol": "",
        "title": "Hong Kong",
        "date": "2017-12-12"
      },
      "geometry": {
        "type": "Point",
        "coordinates": [
          114.17266845703124,
          22.310061087979612
        ]
      }
    },
    {
      "type": "Feature",
      "properties": {
        "marker-color": "#7e7e7e",
        "marker-size": "medium",
        "marker-symbol": "",
        "title": "Sequoia National Park",
        "date": "2014-08-15"
      },
      "geometry": {
        "type": "Point",
        "coordinates": [
          -118.56342315673827,
          36.500529337632216
        ]
      }
    },
    {
      "type": "Feature",
      "properties": {
        "marker-color": "#7e7e7e",
        "marker-size": "medium",
        "marker-symbol": "",
        "title": "Yosemite National Park",
        "date": "2014-08-15"
      },
      "geometry": {
        "type": "Point",
        "coordinates": [
          -119.51339721679688,
          37.84232584933158
        ]
      }
    },
    {
      "type": "Feature",
      "properties": {
        "marker-color": "#7e7e7e",
        "marker-size": "medium",
        "marker-symbol": "",
        "title": "Elba"
      },
      "geometry": {
        "type": "Point",
        "coordinates": [
          10.338134765625,
          42.789354160502775
        ]
      }
    },
    {
      "type": "Feature",
      "properties": {
        "marker-color": "#7e7e7e",
        "marker-size": "medium",
        "marker-symbol": "",
        "title": "Atlantikküste"
      },
      "geometry": {
        "type": "Point",
        "coordinates": [
          8.131256103515625,
          56.29787215216447
        ]
      }
    },
    {
      "type": "Feature",
      "properties": {
        "marker-color": "#7e7e7e",
        "marker-size": "medium",
        "marker-symbol": "",
        "title": "Tintagel"
      },
      "geometry": {
        "type": "Point",
        "coordinates": [
          -4.752788543701172,
          50.66404333726616
        ]
      }
    },
    {
      "type": "Feature",
      "properties": {
        "marker-color": "#7e7e7e",
        "marker-size": "medium",
        "marker-symbol": "",
        "title": "Brecon Beacons National Park "
      },
      "geometry": {
        "type": "Point",
        "coordinates": [
          -3.478546142578125,
          51.8913252533494
        ]
      }
    },
    {
      "type": "Feature",
      "properties": {
        "marker-color": "#7e7e7e",
        "marker-size": "medium",
        "marker-symbol": "",
        "title": "Mandal"
      },
      "geometry": {
        "type": "Point",
        "coordinates": [
          7.452335357666016,
          58.02664598826322
        ]
      }
    },
    {
      "type": "Feature",
      "properties": {
        "marker-color": "#7e7e7e",
        "marker-size": "medium",
        "marker-symbol": "",
        "title": "Oslo"
      },
      "geometry": {
        "type": "Point",
        "coordinates": [
          10.743255615234375,
          59.91097597079679
        ]
      }
    },
    {
      "type": "Feature",
      "properties": {
        "marker-color": "#7e7e7e",
        "marker-size": "medium",
        "marker-symbol": "",
        "title": "Stavanger"
      },
      "geometry": {
        "type": "Point",
        "coordinates": [
          5.7314300537109375,
          58.967888777507724
        ]
      }
    },
    {
      "type": "Feature",
      "properties": {
        "marker-color": "#7e7e7e",
        "marker-size": "medium",
        "marker-symbol": "",
        "title": "Örkelljunga"
      },
      "geometry": {
        "type": "Point",
        "coordinates": [
          13.289337158203123,
          56.27919846171448
        ]
      }
    },
    {
      "type": "Feature",
      "properties": {
        "marker-color": "#7e7e7e",
        "marker-size": "medium",
        "marker-symbol": "",
        "title": "Porto"
      },
      "geometry": {
        "type": "Point",
        "coordinates": [
          -8.609161376953125,
          41.14970617453726
        ]
      }
    },
    {
      "type": "Feature",
      "properties": {
        "marker-color": "#7e7e7e",
        "marker-size": "medium",
        "marker-symbol": "",
        "title": "Salzburg"
      },
      "geometry": {
        "type": "Point",
        "coordinates": [
          13.041887283325195,
          47.800126324760704
        ]
      }
    },
    {
      "type": "Feature",
      "properties": {
        "marker-color": "#7e7e7e",
        "marker-size": "medium",
        "marker-symbol": "",
        "title": "Bodie",
        "date": "2014-08-15"
      },
      "geometry": {
        "type": "Point",
        "coordinates": [
          -119.00733947753905,
          38.21714351862661
        ]
      }
    },
    {
      "type": "Feature",
      "properties": {
        "marker-color": "#7e7e7e",
        "marker-size": "medium",
        "marker-symbol": "",
        "title": "Saint-Florent",
        "date": "2015-07-30"
      },
      "geometry": {
        "type": "Point",
        "coordinates": [
          9.283447265625,
          42.67435857693384
        ]
      }
    },
    {
      "type": "Feature",
      "properties": {
        "marker-color": "#7e7e7e",
        "marker-size": "medium",
        "marker-symbol": "",
        "place": "",
        "date": "2016-10-15",
        "title": "San José"
      },
      "geometry": {
        "type": "Point",
        "coordinates": [
          -84.08660888671875,
          9.930976812881799
        ]
      }
    },
    {
      "type": "Feature",
      "properties": {
        "marker-color": "#7e7e7e",
        "marker-size": "medium",
        "marker-symbol": "",
        "place": "",
        "date": "2016-10-15",
        "title": "Puerto Viejo"
      },
      "geometry": {
        "type": "Point",
        "coordinates": [
          -82.75348663330078,
          9.657953979072877
        ]
      }
    },
    {
      "type": "Feature",
      "properties": {
        "marker-color": "#7e7e7e",
        "marker-size": "medium",
        "marker-symbol": "",
        "place": "",
        "date": "2016-10-15",
        "title": "La Fortuna"
      },
      "geometry": {
        "type": "Point",
        "coordinates": [
          -84.64588165283203,
          10.47177608037063
        ]
      }
    },
    {
      "type": "Feature",
      "properties": {
        "marker-color": "#7e7e7e",
        "marker-size": "medium",
        "marker-symbol": "",
        "place": "",
        "date": "2016-10-15",
        "title": "San José"
      },
      "geometry": {
        "type": "Point",
        "coordinates": [
          -121.89331054687499,
          37.33358648431286
        ]
      }
    },
    {
      "type": "Feature",
      "properties": {
        "marker-color": "#7e7e7e",
        "marker-size": "medium",
        "marker-symbol": "",
        "title": "Amrum",
        "date": "2018-01-01"
      },
      "geometry": {
        "type": "Point",
        "coordinates": [
          8.351669311523438,
          54.65198793476655
        ]
      }
    },
    {
      "type": "Feature",
      "properties": {
        "marker-color": "#7e7e7e",
        "marker-size": "medium",
        "marker-symbol": "",
        "title": "Peking",
        "date": "2017-12-12"
      },
      "geometry": {
        "type": "Point",
        "coordinates": [
          116.36169433593751,
          39.91394967016644
        ]
      }
    },
    {
      "type": "Feature",
      "properties": {
        "marker-color": "#7e7e7e",
        "marker-size": "medium",
        "marker-symbol": "",
        "title": "Tianjin ",
        "date": "2017-12-12"
      },
      "geometry": {
        "type": "Point",
        "coordinates": [
          117.20214843749999,
          39.12579898118161
        ]
      }
    },
    {
      "type": "Feature",
      "properties": {
        "marker-color": "#7e7e7e",
        "marker-size": "medium",
        "marker-symbol": "",
        "title": "Shanghai",
        "date": "2017-12-12"
      },
      "geometry": {
        "type": "Point",
        "coordinates": [
          121.4923095703125,
          31.22689446881399
        ]
      }
    },
    {
      "type": "Feature",
      "properties": {
        "marker-color": "#7e7e7e",
        "marker-size": "medium",
        "marker-symbol": "",
        "title": "Guilin",
        "date": "2017-12-12"
      },
      "geometry": {
        "type": "Point",
        "coordinates": [
          110.291748046875,
          25.283196012824373
        ]
      }
    },
    {
      "type": "Feature",
      "properties": {
        "marker-color": "#7e7e7e",
        "marker-size": "medium",
        "marker-symbol": "",
        "title": "Kunming",
        "date": "2017-12-12"
      },
      "geometry": {
        "type": "Point",
        "coordinates": [
          102.71942138671875,
          25.04330389487308
        ]
      }
    },
    {
      "type": "Feature",
      "properties": {
        "marker-color": "#7e7e7e",
        "marker-size": "medium",
        "marker-symbol": "",
        "title": "Shenzhen",
        "date": "2017-12-12"
      },
      "geometry": {
        "type": "Point",
        "coordinates": [
          114.05044555664062,
          22.53792742994721
        ]
      }
    },
    {
      "type": "Feature",
      "properties": {
        "marker-color": "#7e7e7e",
        "marker-size": "medium",
        "marker-symbol": "",
        "title": "Offenburg",
        "date": "2018-07-07"
      },
      "geometry": {
        "type": "Point",
        "coordinates": [
          7.964057922363281,
          48.450610193358266
        ]
      }
    },
    {
      "type": "Feature",
      "properties": {
        "marker-color": "#7e7e7e",
        "marker-size": "medium",
        "marker-symbol": "",
        "title": "New Delhi",
        "date": "2018-11-01"
      },
      "geometry": {
        "type": "Point",
        "coordinates": [
          77.21946716308594,
          28.635157471966515
        ]
      }
    },
    {
      "type": "Feature",
      "properties": {
        "marker-color": "#7e7e7e",
        "marker-size": "medium",
        "marker-symbol": "",
        "title": "McLeodGanj",
        "date": "2018-11-01"
      },
      "geometry": {
        "type": "Point",
        "coordinates": [
          76.32433891296385,
          32.2393031839833
        ]
      }
    },
    {
      "type": "Feature",
      "properties": {
        "marker-color": "#7e7e7e",
        "marker-size": "medium",
        "marker-symbol": "",
        "title": "Amritsar",
        "date": "2018-11-01"
      },
      "geometry": {
        "type": "Point",
        "coordinates": [
          74.87319946289062,
          31.632921683148886
        ]
      }
    },
    {
      "type": "Feature",
      "properties": {
        "marker-color": "#7e7e7e",
        "marker-size": "medium",
        "marker-symbol": "",
        "title": "Varanasi",
        "date": "2018-11-01"
      },
      "geometry": {
        "type": "Point",
        "coordinates": [
          83.00514221191406,
          25.301820690255198
        ]
      }
    },
    {
      "type": "Feature",
      "properties": {
        "marker-color": "#7e7e7e",
        "marker-size": "medium",
        "marker-symbol": "",
        "title": "Rishikesh",
        "date": "2018-11-01"
      },
      "geometry": {
        "type": "Point",
        "coordinates": [
          78.32985877990723,
          30.123748754600435
        ]
      }
    },
    {
      "type": "Feature",
      "properties": {
        "marker-color": "#7e7e7e",
        "marker-size": "medium",
        "marker-symbol": "",
        "title": "Cotignac",
        "date": "2019-04-20"
      },
      "geometry": {
        "type": "Point",
        "coordinates": [
          6.149768829345703,
          43.52826446811469
        ]
      }
    },
    {
      "type": "Feature",
      "properties": {
        "marker-color": "#7e7e7e",
        "marker-size": "medium",
        "marker-symbol": "",
        "title": "Gorge du Verdon",
        "date": "2019-04-20"
      },
      "geometry": {
        "type": "Point",
        "coordinates": [
          6.2532806396484375,
          43.80157978110818
        ]
      }
    },
    {
      "type": "Feature",
      "properties": {
        "marker-color": "#7e7e7e",
        "marker-size": "medium",
        "marker-symbol": "",
        "title": "Athens",
        "date": "2019-05-01"
      },
      "geometry": {
        "type": "Point",
        "coordinates": [
          23.725318908691403,
          37.98155119106918
        ]
      }
    },
    {
      "type": "Feature",
      "properties": {
        "marker-color": "#7e7e7e",
        "marker-size": "medium",
        "marker-symbol": "",
        "title": "Peloponnese",
        "date": "2019-05-01"
      },
      "geometry": {
        "type": "Point",
        "coordinates": [
          22.825469970703125,
          37.95610943630718
        ]
      }
    },
    {
      "type": "Feature",
      "properties": {},
      "geometry": {
        "type": "Point",
        "coordinates": [
          21.20361328125,
          38.852542390364235
        ]
      }
    },
    {
      "type": "Feature",
      "properties": {
        "marker-color": "#7e7e7e",
        "marker-size": "medium",
        "marker-symbol": "",
        "title": "Ioannina",
        "date": "2019-05-01"
      },
      "geometry": {
        "type": "Point",
        "coordinates": [
          20.833168029785156,
          39.68420396725724
        ]
      }
    },
    {
      "type": "Feature",
      "properties": {
        "marker-color": "#7e7e7e",
        "marker-size": "medium",
        "marker-symbol": "",
        "title": "Epirus",
        "date": "2019-05-01"
      },
      "geometry": {
        "type": "Point",
        "coordinates": [
          20.47988891601562,
          39.88866516883713
        ]
      }
    },
    {
      "type": "Feature",
      "properties": {
        "marker-color": "#7e7e7e",
        "marker-size": "medium",
        "marker-symbol": "",
        "title": "Meteora",
        "date": "2019-05-01"
      },
      "geometry": {
        "type": "Point",
        "coordinates": [
          21.20086669921875,
          39.76738084178371
        ]
      }
    },
    {
      "type": "Feature",
      "properties": {
        "marker-color": "#7e7e7e",
        "marker-size": "medium",
        "marker-symbol": "",
        "title": "Ktismata",
        "date": "2019-05-01"
      },
      "geometry": {
        "type": "Point",
        "coordinates": [
          20.3521728515625,
          39.91289633555756
        ]
      }
    },
    {
      "type": "Feature",
      "properties": {
        "marker-color": "#7e7e7e",
        "marker-size": "medium",
        "marker-symbol": "",
        "title": "blue eye",
        "date": "2019-05-01"
      },
      "geometry": {
        "type": "Point",
        "coordinates": [
          20.03631591796875,
          39.915002988576155
        ]
      }
    },
    {
      "type": "Feature",
      "properties": {
        "marker-color": "#7e7e7e",
        "marker-size": "medium",
        "marker-symbol": "",
        "title": "Himare",
        "date": "2019-05-01"
      },
      "geometry": {
        "type": "Point",
        "coordinates": [
          19.75067138671875,
          40.096983167279575
        ]
      }
    },
    {
      "type": "Feature",
      "properties": {
        "marker-color": "#7e7e7e",
        "marker-size": "medium",
        "marker-symbol": "",
        "title": "Vlore",
        "date": "2019-05-01"
      },
      "geometry": {
        "type": "Point",
        "coordinates": [
          19.482879638671875,
          40.47620304302563
        ]
      }
    },
    {
      "type": "Feature",
      "properties": {
        "marker-color": "#7e7e7e",
        "marker-size": "medium",
        "marker-symbol": "",
        "title": "Durres",
        "date": "2019-05-01"
      },
      "geometry": {
        "type": "Point",
        "coordinates": [
          19.444427490234375,
          41.321138395239565
        ]
      }
    },
    {
      "type": "Feature",
      "properties": {
        "marker-color": "#7e7e7e",
        "marker-size": "medium",
        "marker-symbol": "",
        "title": "Shkoder",
        "date": "2019-05-01"
      },
      "geometry": {
        "type": "Point",
        "coordinates": [
          19.507598876953125,
          42.06968462804663
        ]
      }
    },
    {
      "type": "Feature",
      "properties": {
        "marker-color": "#7e7e7e",
        "marker-size": "medium",
        "marker-symbol": "",
        "title": "Bar",
        "date": "2019-05-01"
      },
      "geometry": {
        "type": "Point",
        "coordinates": [
          19.180755615234375,
          42.19291648699529
        ]
      }
    },
    {
      "type": "Feature",
      "properties": {
        "marker-color": "#7e7e7e",
        "marker-size": "medium",
        "marker-symbol": "",
        "title": "Cetinje",
        "date": "2019-05-01"
      },
      "geometry": {
        "type": "Point",
        "coordinates": [
          18.928070068359375,
          42.385937107381125
        ]
      }
    },
    {
      "type": "Feature",
      "properties": {
        "marker-color": "#7e7e7e",
        "marker-size": "medium",
        "marker-symbol": "",
        "title": "Kotor",
        "date": "2019-05-01"
      },
      "geometry": {
        "type": "Point",
        "coordinates": [
          18.774261474609375,
          42.428524987525385
        ]
      }
    },
    {
      "type": "Feature",
      "properties": {
        "marker-color": "#7e7e7e",
        "marker-size": "medium",
        "marker-symbol": "",
        "title": "Dubrovnik",
        "date": "2019-05-01"
      },
      "geometry": {
        "type": "Point",
        "coordinates": [
          18.106842041015625,
          42.65416193033991
        ]
      }
    }
  ]
}